[
    {
        "ID":"TW01",
        "Title":"小人國主題樂園",
        "URL":"https://www.wow.com.tw/",
        "Tag":"三大主題：游世界、遊樂園、水樂園",
        "Lat":"24.83219502016741",
        "Lng":"121.18835344700378"
    },
    {
        "ID":"TW02",
        "Title":"六福村",
        "URL":"https://www.leofoovillage.com.tw/",
        "Tag":"笑傲飛鷹、大怒神、急流泛舟",
        "Lat":"24.826193566197453",
        "Lng":"121.18030249020728"
    },
    {
        "ID":"TW03",
        "Title":"麗寶探索世界",
        "URL":"https://www.lihpaoresort.com/LihpaolandApp",
        "Tag":"搶救地心、大海嘯",
        "Lat":"24.827340566211248",
        "Lng":"121.1806890206115"
    },
    {
        "ID":"TW04",
        "Title":"九族文化村",
        "URL":"https://www.nine.com.tw/index.aspx",
        "Tag":"九族櫻花祭、馬雅探險、西班牙海岸",
        "Lat":"23.865544021751024",
        "Lng":"120.94824581328622"
    },
    {
        "ID":"TW05",
        "Title":"劍湖山世界",
        "URL":"http://fancyworld.janfusun.com.tw/fancyworld.php",
        "Tag":"G5、小威海盜村",
        "Lat":"23.616158891724627",
        "Lng":"120.57945072101606"
    },
    {
        "ID":"TW06",
        "Title":"義大世界",
        "URL":"http://www.edathemepark.com.tw/Website/index.aspx",
        "Tag":"衛城、聖托里尼山城、特洛伊城保",
        "Lat":"22.73126336198941",
        "Lng":"120.40891714037916"
    },
    {
        "ID":"TW07",
        "Title":"遠雄海洋公園",
        "URL":"https://www.farglory-oceanpark.com.tw/",
        "Tag":"八大主題、海獅秀",
        "Lat":"23.901524913936413",
        "Lng":"121.60352638280273"
    },
    {
        "ID":"TW08",
        "Title":"鈴鹿賽道樂園",
        "URL":"http://www.suzukacircuitpark.com/",
        "Tag":"日本鈴鹿賽車場唯一海外授權，全台第一座駕駛主題遊樂園",
        "Lat":"22.584312754801235",
        "Lng":"120.328619699981"
    },
    {
        "ID":"KR01",
        "Title":"樂天世界롯데월드",
        "URL":"https://adventure.lotteworld.com/zh-cht/lotteworld/introduce/business/contentsid/591/index.do",
        "Tag":"世界最大室內主題樂園，韓國最大規模的溜冰場",
        "Lat":"37.51136256311829",
        "Lng":"127.09822065141654"
    },
    {
        "ID":"KR02",
        "Title":"愛寶樂園Everland",
        "URL":"http://www.everland.com/",
        "Tag":"韓國規模最大、木製雲霄飛車T EXPRESS、野生動物園區",
        "Lat":"37.29481513081257",
        "Lng":"127.20256640000359"
    },
    {
        "ID":"KR03",
        "Title":"首爾樂園",
        "URL":"http://www.seoulland.co.kr/",
        "Tag":"韓國第一座兒童樂園、各式主題慶典",
        "Lat":"37.43487547957762",
        "Lng":"127.01998182016159"
    },
    {
        "ID":"KR04",
        "Title":"月尾My-Land",
        "URL":"http://www.my-land.co.kr/index/",
        "Tag":"仁川月尾島、占地4000坪的主題樂園",
        "Lat":"37.471450281327165",
        "Lng":"126.59628535340157"
    },
    {
        "ID":"KR05",
        "Title":"大邱E-WORLD",
        "URL":"https://eworld.kr/",
        "Tag":"著名83塔、空中旋轉餐廳、空中走廊",
        "Lat":"35.854424756860745",
        "Lng":"128.56417530904272"
    },
    {
        "ID":"KR06",
        "Title":"通度Fantasia",
        "URL":"http://www.fantasia.co.kr/",
        "Tag":"來自星星的你重點戲場景-摩天輪",
        "Lat":"35.500213430077935",
        "Lng":"129.08317038660113"
    },
    {
        "ID":"KR07",
        "Title":"濟州神話世界",
        "URL":"https://www.shinhwaworld.com/",
        "Tag":"最新濟州島玩樂景點，神話主題公園、神話水上樂園、爆笑蟲子的冒險村",
        "Lat":"33.30512382995359",
        "Lng":"126.31540526304792"
    },
    {
        "ID":"JP01",
        "Title":"東京迪士尼樂園",
        "URL":"https://www.tokyodisneyresort.jp/tc/index.html",
        "Tag":"東京迪士尼樂園、東京迪士尼海洋",
        "Lat":"35.631703659935106",
        "Lng":"139.8825709472056"
    },
    {
        "ID":"JP02",
        "Title":"橫濱太空世界COSMO WORLD",
        "URL":"http://cosmoworld.jp/",
        "Tag":"世界最大的時鐘式摩天輪—COSMOS CLOCK 21",
        "Lat":"35.45540954202705",
        "Lng":"139.63699776457443"
    },
    {
        "ID":"JP03",
        "Title":"三麗鷗彩虹樂園Sanrio Puroland",
        "URL":"https://www.puroland.jp/",
        "Tag":"三麗鷗公司旗下卡通人物為主題的室內遊樂園",
        "Lat":"35.624712541590846",
        "Lng":"139.4293466496058"
    },
    {
        "ID":"JP04",
        "Title":"橫濱八景島海島樂園SEA PARADISE",
        "URL":"http://www.seaparadise.co.jp/zh-CHS/index.html",
        "Tag":"3層樓高的巨型水槽、SURF COASTER LEVIATHAN",
        "Lat":"35.33662966458972",
        "Lng":"139.64519095742412"
    },
    {
        "ID":"JP05",
        "Title":"富士急樂園",
        "URL":"https://www.fujiq.jp/",
        "Tag":"多項世界紀錄雲霄飛車",
        "Lat":"35.487531387378205",
        "Lng":"138.78059113924735"
    },
    {
        "ID":"JP06",
        "Title":"MOOMINVALLEY PARK",
        "URL":"https://metsa-hanno.com/",
        "Tag":"來自芬蘭森林的嚕嚕米家族（MOOMINS）主題樂園",
        "Lat":"35.87271901875803",
        "Lng":"139.32539824988615"
    },
    {
        "ID":"JP07",
        "Title":"日光江戶村EDO WONDERLAND",
        "URL":"http://edowonderland.net/",
        "Tag":"江戶時代主題樂園，忍者機關迷宮、大忍者劇場",
        "Lat":"36.791080909566695",
        "Lng":"139.69738825179235"
    },
    {
        "ID":"JP08",
        "Title":"親子飯店-夏威夷溫泉渡假村",
        "URL":"https://www.hawaiians.co.jp/",
        "Tag":"6座天然溫泉主題公園、夏威夷草裙舞",
        "Lat":"36.99383318394891",
        "Lng":"140.81554891108277"
    },
    {
        "ID":"JP09",
        "Title":"日本樂高樂園LEGOLAND® JAPAN",
        "URL":"https://www.legoland.jp/",
        "Tag":"日本第一座以樂高積木為主的主題樂園",
        "Lat":"35.0508523874788",
        "Lng":"136.84386149292"
    },
    {
        "ID":"JP10",
        "Title":"長島溫泉樂園",
        "URL":"https://www.nagashima-onsen.co.jp/",
        "Tag":"STEEL DRAGON 全長2479公尺，世界最長雲霄飛車",
        "Lat":"35.03041066635361",
        "Lng":"136.7299911875003"
    },
    {
        "ID":"JP11",
        "Title":"豪斯登堡",
        "URL":"https://chinese02.huistenbosch.co.jp/",
        "Tag":"荷蘭風情，1300萬顆燈泡打造出「白銀的世界」、海賊王千陽號2nd遊船",
        "Lat":"33.08564764664115",
        "Lng":"129.78854060407133"
    },
    {
        "ID":"JP12",
        "Title":"三鷹之森吉卜力美術館",
        "URL":"https://www.ghibli-museum.jp/",
        "Tag":"吉卜力工作室經典作品",
        "Lat":"35.696438361465695",
        "Lng":"139.57048534960498"
    },
    {
        "ID":"JP13",
        "Title":"teamLab Borderless",
        "URL":"https://borderless.teamlab.art/jp/",
        "Tag":"無人不知無人不曉的光影藝術表演團隊",
        "Lat":"35.62893866664528",
        "Lng":"139.78351396656637"
    },
    {
        "ID":"JP14",
        "Title":"讀賣樂園",
        "URL":"https://www.yomiuriland.com/",
        "Tag":"一年四季都有不同的主題活動",
        "Lat":"35.62836287225885",
        "Lng":"139.51700845081137"
    },
    {
        "ID":"JP15",
        "Title":"USJ日本環球影城",
        "URL":"https://www.usj.co.jp/web/ja/jp",
        "Tag":"任天堂世界、COOL JAPAN2020",
        "Lat":"34.665680217737965",
        "Lng":"135.43235966371552"
    }


]